[
  {
    "project_id": "IMED-2022-DHK-0142",
    "project_name": "Mirpur drainage improvement phase 2",
    "type": "drain",
    "thana": "Mirpur",
    "lat": 23.807,
    "lon": 90.368,
    "budget_bdt": 45000000,
    "approved_year": 2022,
    "completion_target": 2023,
    "source_url": "https://imed.gov.bd/project/IMED-2022-DHK-0142",
    "implementing_agency": "DNCC",
    "status": "completed"
  },
  {
    "project_id": "IMED-2021-DHK-0089",
    "project_name": "Mirpur-Pallabi main drain rehabilitation",
    "type": "drain",
    "thana": "Mirpur",
    "lat": 23.812,
    "lon": 90.365,
    "budget_bdt": 17000000,
    "approved_year": 2021,
    "completion_target": 2022,
    "source_url": "https://imed.gov.bd/project/IMED-2021-DHK-0089",
    "implementing_agency": "DNCC",
    "status": "completed"
  },
  {
    "project_id": "IMED-2021-DHK-0055",
    "project_name": "Pallabi road widening and resurfacing",
    "type": "road",
    "thana": "Mirpur",
    "lat": 23.822,
    "lon": 90.363,
    "budget_bdt": 32000000,
    "approved_year": 2021,
    "completion_target": 2023,
    "source_url": "https://imed.gov.bd/project/IMED-2021-DHK-0055",
    "implementing_agency": "DSCC",
    "status": "ongoing"
  },
  {
    "project_id": "IMED-2022-DHK-0201",
    "project_name": "Mirpur-10 community health clinic construction",
    "type": "clinic",
    "thana": "Mirpur",
    "lat": 23.8069,
    "lon": 90.3687,
    "budget_bdt": 21000000,
    "approved_year": 2022,
    "completion_target": 2024,
    "source_url": "https://imed.gov.bd/project/IMED-2022-DHK-0201",
    "implementing_agency": "DGHS",
    "status": "ongoing"
  },
  {
    "project_id": "IMED-2023-DHK-0018",
    "project_name": "Kazipara primary school extension",
    "type": "school",
    "thana": "Mirpur",
    "lat": 23.795,
    "lon": 90.372,
    "budget_bdt": 18000000,
    "approved_year": 2023,
    "completion_target": 2024,
    "source_url": "https://imed.gov.bd/project/IMED-2023-DHK-0018",
    "implementing_agency": "DPE",
    "status": "completed"
  },
  {
    "project_id": "IMED-2023-DHK-0042",
    "project_name": "Mirpur WASA water supply pipeline extension",
    "type": "drain",
    "thana": "Mirpur",
    "lat": 23.801,
    "lon": 90.375,
    "budget_bdt": 8000000,
    "approved_year": 2023,
    "completion_target": 2024,
    "source_url": "https://imed.gov.bd/project/IMED-2023-DHK-0042",
    "implementing_agency": "DWASA",
    "status": "completed"
  },
  {
    "project_id": "IMED-2020-DHK-0312",
    "project_name": "Dhanmondi lake area drainage network upgrade",
    "type": "drain",
    "thana": "Dhanmondi",
    "lat": 23.746,
    "lon": 90.374,
    "budget_bdt": 55000000,
    "approved_year": 2020,
    "completion_target": 2022,
    "source_url": "https://imed.gov.bd/project/IMED-2020-DHK-0312",
    "implementing_agency": "DSCC",
    "status": "completed"
  },
  {
    "project_id": "IMED-2021-DHK-0178",
    "project_name": "Dhanmondi Road 27 reconstruction",
    "type": "road",
    "thana": "Dhanmondi",
    "lat": 23.748,
    "lon": 90.371,
    "budget_bdt": 28000000,
    "approved_year": 2021,
    "completion_target": 2023,
    "source_url": "https://imed.gov.bd/project/IMED-2021-DHK-0178",
    "implementing_agency": "DSCC",
    "status": "completed"
  },
  {
    "project_id": "IMED-2022-DHK-0256",
    "project_name": "Dhanmondi community clinic upgrade",
    "type": "clinic",
    "thana": "Dhanmondi",
    "lat": 23.742,
    "lon": 90.376,
    "budget_bdt": 25000000,
    "approved_year": 2022,
    "completion_target": 2024,
    "source_url": "https://imed.gov.bd/project/IMED-2022-DHK-0256",
    "implementing_agency": "DGHS",
    "status": "ongoing"
  },
  {
    "project_id": "IMED-2020-DHK-0401",
    "project_name": "Gulshan-Banani storm water drain construction",
    "type": "drain",
    "thana": "Gulshan",
    "lat": 23.793,
    "lon": 90.414,
    "budget_bdt": 72000000,
    "approved_year": 2020,
    "completion_target": 2023,
    "source_url": "https://imed.gov.bd/project/IMED-2020-DHK-0401",
    "implementing_agency": "DNCC",
    "status": "completed"
  },
  {
    "project_id": "IMED-2022-DHK-0167",
    "project_name": "Gulshan Circle-2 road improvement",
    "type": "road",
    "thana": "Gulshan",
    "lat": 23.795,
    "lon": 90.416,
    "budget_bdt": 15000000,
    "approved_year": 2022,
    "completion_target": 2023,
    "source_url": "https://imed.gov.bd/project/IMED-2022-DHK-0167",
    "implementing_agency": "DNCC",
    "status": "completed"
  },
  {
    "project_id": "IMED-2021-DHK-0290",
    "project_name": "Mohammadpur drainage and culvert repair",
    "type": "drain",
    "thana": "Mohammadpur",
    "lat": 23.765,
    "lon": 90.359,
    "budget_bdt": 35000000,
    "approved_year": 2021,
    "completion_target": 2023,
    "source_url": "https://imed.gov.bd/project/IMED-2021-DHK-0290",
    "implementing_agency": "DSCC",
    "status": "completed"
  },
  {
    "project_id": "IMED-2023-DHK-0078",
    "project_name": "Mohammadpur primary school construction",
    "type": "school",
    "thana": "Mohammadpur",
    "lat": 23.762,
    "lon": 90.355,
    "budget_bdt": 22000000,
    "approved_year": 2023,
    "completion_target": 2025,
    "source_url": "https://imed.gov.bd/project/IMED-2023-DHK-0078",
    "implementing_agency": "DPE",
    "status": "ongoing"
  },
  {
    "project_id": "IMED-2020-DHK-0189",
    "project_name": "Uttara sector 10 road bridge construction",
    "type": "bridge",
    "thana": "Uttara",
    "lat": 23.874,
    "lon": 90.395,
    "budget_bdt": 85000000,
    "approved_year": 2020,
    "completion_target": 2023,
    "source_url": "https://imed.gov.bd/project/IMED-2020-DHK-0189",
    "implementing_agency": "LGED",
    "status": "completed"
  },
  {
    "project_id": "IMED-2022-DHK-0345",
    "project_name": "Uttara sector 6 drainage extension",
    "type": "drain",
    "thana": "Uttara",
    "lat": 23.868,
    "lon": 90.399,
    "budget_bdt": 18000000,
    "approved_year": 2022,
    "completion_target": 2023,
    "source_url": "https://imed.gov.bd/project/IMED-2022-DHK-0345",
    "implementing_agency": "DNCC",
    "status": "completed"
  },
  {
    "project_id": "IMED-2021-DHK-0112",
    "project_name": "Hazaribagh road widening phase 1",
    "type": "road",
    "thana": "Hazaribagh",
    "lat": 23.737,
    "lon": 90.366,
    "budget_bdt": 42000000,
    "approved_year": 2021,
    "completion_target": 2023,
    "source_url": "https://imed.gov.bd/project/IMED-2021-DHK-0112",
    "implementing_agency": "DSCC",
    "status": "ongoing"
  },
  {
    "project_id": "IMED-2022-DHK-0198",
    "project_name": "Hazaribagh tannery area drain cleanup",
    "type": "drain",
    "thana": "Hazaribagh",
    "lat": 23.735,
    "lon": 90.362,
    "budget_bdt": 38000000,
    "approved_year": 2022,
    "completion_target": 2024,
    "source_url": "https://imed.gov.bd/project/IMED-2022-DHK-0198",
    "implementing_agency": "DSCC",
    "status": "ongoing"
  },
  {
    "project_id": "IMED-2023-DHK-0056",
    "project_name": "Badda community clinic construction",
    "type": "clinic",
    "thana": "Badda",
    "lat": 23.781,
    "lon": 90.426,
    "budget_bdt": 12000000,
    "approved_year": 2023,
    "completion_target": 2024,
    "source_url": "https://imed.gov.bd/project/IMED-2023-DHK-0056",
    "implementing_agency": "DGHS",
    "status": "ongoing"
  },
  {
    "project_id": "IMED-2020-DHK-0267",
    "project_name": "Tejgaon industrial area road repair",
    "type": "road",
    "thana": "Tejgaon",
    "lat": 23.759,
    "lon": 90.393,
    "budget_bdt": 25000000,
    "approved_year": 2020,
    "completion_target": 2022,
    "source_url": "https://imed.gov.bd/project/IMED-2020-DHK-0267",
    "implementing_agency": "DNCC",
    "status": "completed"
  },
  {
    "project_id": "IMED-2022-DHK-0389",
    "project_name": "Jatrabari pedestrian overpass bridge",
    "type": "bridge",
    "thana": "Jatrabari",
    "lat": 23.711,
    "lon": 90.432,
    "budget_bdt": 12000000,
    "approved_year": 2022,
    "completion_target": 2023,
    "source_url": "https://imed.gov.bd/project/IMED-2022-DHK-0389",
    "implementing_agency": "DSCC",
    "status": "completed"
  }
]
