[
  {"project_id":"IMED-2022-DHK-0142","project_name":"Mirpur drainage improvement phase 2","type":"drain","thana":"Mirpur","lat":23.807,"lon":90.368,"budget_bdt":45000000,"approved_year":2022,"completion_target":2023,"source_url":"https://imed.gov.bd/project/IMED-2022-DHK-0142","implementing_agency":"DNCC","status":"completed"},
  {"project_id":"IMED-2021-DHK-0089","project_name":"Mirpur-Pallabi main drain rehabilitation","type":"drain","thana":"Mirpur","lat":23.812,"lon":90.365,"budget_bdt":17000000,"approved_year":2021,"completion_target":2022,"source_url":"https://imed.gov.bd/project/IMED-2021-DHK-0089","implementing_agency":"DNCC","status":"completed"},
  {"project_id":"IMED-2021-DHK-0055","project_name":"Pallabi road widening and resurfacing","type":"road","thana":"Mirpur","lat":23.822,"lon":90.363,"budget_bdt":32000000,"approved_year":2021,"completion_target":2023,"source_url":"https://imed.gov.bd/project/IMED-2021-DHK-0055","implementing_agency":"DSCC","status":"ongoing"},
  {"project_id":"IMED-2022-DHK-0201","project_name":"Mirpur-10 community health clinic construction","type":"clinic","thana":"Mirpur","lat":23.8069,"lon":90.3687,"budget_bdt":21000000,"approved_year":2022,"completion_target":2024,"source_url":"https://imed.gov.bd/project/IMED-2022-DHK-0201","implementing_agency":"DGHS","status":"ongoing"},
  {"project_id":"IMED-2023-DHK-0018","project_name":"Kazipara primary school extension","type":"school","thana":"Mirpur","lat":23.795,"lon":90.372,"budget_bdt":18000000,"approved_year":2023,"completion_target":2024,"source_url":"https://imed.gov.bd/project/IMED-2023-DHK-0018","implementing_agency":"DPE","status":"completed"},
  {"project_id":"IMED-2023-DHK-0042","project_name":"Mirpur WASA water supply pipeline extension","type":"drain","thana":"Mirpur","lat":23.801,"lon":90.375,"budget_bdt":8000000,"approved_year":2023,"completion_target":2024,"source_url":"https://imed.gov.bd/project/IMED-2023-DHK-0042","implementing_agency":"DWASA","status":"completed"},
  {"project_id":"IMED-2020-DHK-0312","project_name":"Dhanmondi lake area drainage network upgrade","type":"drain","thana":"Dhanmondi","lat":23.746,"lon":90.374,"budget_bdt":55000000,"approved_year":2020,"completion_target":2022,"source_url":"https://imed.gov.bd/project/IMED-2020-DHK-0312","implementing_agency":"DSCC","status":"completed"},
  {"project_id":"IMED-2021-DHK-0178","project_name":"Dhanmondi Road 27 reconstruction","type":"road","thana":"Dhanmondi","lat":23.748,"lon":90.371,"budget_bdt":28000000,"approved_year":2021,"completion_target":2023,"source_url":"https://imed.gov.bd/project/IMED-2021-DHK-0178","implementing_agency":"DSCC","status":"completed"},
  {"project_id":"IMED-2022-DHK-0256","project_name":"Dhanmondi community clinic upgrade","type":"clinic","thana":"Dhanmondi","lat":23.742,"lon":90.376,"budget_bdt":25000000,"approved_year":2022,"completion_target":2024,"source_url":"https://imed.gov.bd/project/IMED-2022-DHK-0256","implementing_agency":"DGHS","status":"ongoing"},
  {"project_id":"IMED-2020-DHK-0401","project_name":"Gulshan-Banani storm water drain construction","type":"drain","thana":"Gulshan","lat":23.793,"lon":90.414,"budget_bdt":72000000,"approved_year":2020,"completion_target":2023,"source_url":"https://imed.gov.bd/project/IMED-2020-DHK-0401","implementing_agency":"DNCC","status":"completed"},
  {"project_id":"IMED-2022-DHK-0167","project_name":"Gulshan Circle-2 road improvement","type":"road","thana":"Gulshan","lat":23.795,"lon":90.416,"budget_bdt":15000000,"approved_year":2022,"completion_target":2023,"source_url":"https://imed.gov.bd/project/IMED-2022-DHK-0167","implementing_agency":"DNCC","status":"completed"},
  {"project_id":"IMED-2021-DHK-0290","project_name":"Mohammadpur drainage and culvert repair","type":"drain","thana":"Mohammadpur","lat":23.765,"lon":90.359,"budget_bdt":35000000,"approved_year":2021,"completion_target":2023,"source_url":"https://imed.gov.bd/project/IMED-2021-DHK-0290","implementing_agency":"DSCC","status":"completed"},
  {"project_id":"IMED-2023-DHK-0078","project_name":"Mohammadpur primary school construction","type":"school","thana":"Mohammadpur","lat":23.762,"lon":90.355,"budget_bdt":22000000,"approved_year":2023,"completion_target":2025,"source_url":"https://imed.gov.bd/project/IMED-2023-DHK-0078","implementing_agency":"DPE","status":"ongoing"},
  {"project_id":"IMED-2020-DHK-0189","project_name":"Uttara sector 10 road bridge construction","type":"bridge","thana":"Uttara","lat":23.874,"lon":90.395,"budget_bdt":85000000,"approved_year":2020,"completion_target":2023,"source_url":"https://imed.gov.bd/project/IMED-2020-DHK-0189","implementing_agency":"LGED","status":"completed"},
  {"project_id":"IMED-2022-DHK-0345","project_name":"Uttara sector 6 drainage extension","type":"drain","thana":"Uttara","lat":23.868,"lon":90.399,"budget_bdt":18000000,"approved_year":2022,"completion_target":2023,"source_url":"https://imed.gov.bd/project/IMED-2022-DHK-0345","implementing_agency":"DNCC","status":"completed"},
  {"project_id":"IMED-2021-DHK-0112","project_name":"Hazaribagh road widening phase 1","type":"road","thana":"Hazaribagh","lat":23.737,"lon":90.366,"budget_bdt":42000000,"approved_year":2021,"completion_target":2023,"source_url":"https://imed.gov.bd/project/IMED-2021-DHK-0112","implementing_agency":"DSCC","status":"ongoing"},
  {"project_id":"IMED-2022-DHK-0198","project_name":"Hazaribagh tannery area drain cleanup","type":"drain","thana":"Hazaribagh","lat":23.735,"lon":90.362,"budget_bdt":38000000,"approved_year":2022,"completion_target":2024,"source_url":"https://imed.gov.bd/project/IMED-2022-DHK-0198","implementing_agency":"DSCC","status":"ongoing"},
  {"project_id":"IMED-2023-DHK-0056","project_name":"Badda community clinic construction","type":"clinic","thana":"Badda","lat":23.781,"lon":90.426,"budget_bdt":12000000,"approved_year":2023,"completion_target":2024,"source_url":"https://imed.gov.bd/project/IMED-2023-DHK-0056","implementing_agency":"DGHS","status":"ongoing"},
  {"project_id":"IMED-2020-DHK-0267","project_name":"Tejgaon industrial area road repair","type":"road","thana":"Tejgaon","lat":23.759,"lon":90.393,"budget_bdt":25000000,"approved_year":2020,"completion_target":2022,"source_url":"https://imed.gov.bd/project/IMED-2020-DHK-0267","implementing_agency":"DNCC","status":"completed"},
  {"project_id":"IMED-2022-DHK-0389","project_name":"Jatrabari pedestrian overpass bridge","type":"bridge","thana":"Jatrabari","lat":23.711,"lon":90.432,"budget_bdt":12000000,"approved_year":2022,"completion_target":2023,"source_url":"https://imed.gov.bd/project/IMED-2022-DHK-0389","implementing_agency":"DSCC","status":"completed"},
  {"project_id":"IMED-2020-DHK-0450","project_name":"Motijheel commercial area drain rehabilitation","type":"drain","thana":"Motijheel","lat":23.733,"lon":90.418,"budget_bdt":62000000,"approved_year":2020,"completion_target":2022,"source_url":"https://imed.gov.bd/project/IMED-2020-DHK-0450","implementing_agency":"DSCC","status":"completed"},
  {"project_id":"IMED-2021-DHK-0321","project_name":"Motijheel to Kamalapur road upgrade","type":"road","thana":"Motijheel","lat":23.731,"lon":90.422,"budget_bdt":48000000,"approved_year":2021,"completion_target":2023,"source_url":"https://imed.gov.bd/project/IMED-2021-DHK-0321","implementing_agency":"DSCC","status":"completed"},
  {"project_id":"IMED-2023-DHK-0091","project_name":"Motijheel ward clinic renovation","type":"clinic","thana":"Motijheel","lat":23.729,"lon":90.415,"budget_bdt":14000000,"approved_year":2023,"completion_target":2024,"source_url":"https://imed.gov.bd/project/IMED-2023-DHK-0091","implementing_agency":"DGHS","status":"ongoing"},
  {"project_id":"IMED-2022-DHK-0412","project_name":"Lalbagh fort area drainage improvement","type":"drain","thana":"Lalbagh","lat":23.719,"lon":90.389,"budget_bdt":29000000,"approved_year":2022,"completion_target":2023,"source_url":"https://imed.gov.bd/project/IMED-2022-DHK-0412","implementing_agency":"DSCC","status":"completed"},
  {"project_id":"IMED-2021-DHK-0156","project_name":"Lalbagh ward road construction phase 2","type":"road","thana":"Lalbagh","lat":23.722,"lon":90.392,"budget_bdt":36000000,"approved_year":2021,"completion_target":2023,"source_url":"https://imed.gov.bd/project/IMED-2021-DHK-0156","implementing_agency":"DSCC","status":"ongoing"},
  {"project_id":"IMED-2023-DHK-0103","project_name":"Lalbagh primary school modernization","type":"school","thana":"Lalbagh","lat":23.717,"lon":90.386,"budget_bdt":24000000,"approved_year":2023,"completion_target":2025,"source_url":"https://imed.gov.bd/project/IMED-2023-DHK-0103","implementing_agency":"DPE","status":"ongoing"},
  {"project_id":"IMED-2020-DHK-0523","project_name":"Banani lake stormwater drain network","type":"drain","thana":"Banani","lat":23.794,"lon":90.404,"budget_bdt":58000000,"approved_year":2020,"completion_target":2022,"source_url":"https://imed.gov.bd/project/IMED-2020-DHK-0523","implementing_agency":"DNCC","status":"completed"},
  {"project_id":"IMED-2022-DHK-0278","project_name":"Banani road-11 rehabilitation","type":"road","thana":"Banani","lat":23.792,"lon":90.401,"budget_bdt":19000000,"approved_year":2022,"completion_target":2023,"source_url":"https://imed.gov.bd/project/IMED-2022-DHK-0278","implementing_agency":"DNCC","status":"completed"},
  {"project_id":"IMED-2023-DHK-0134","project_name":"Banani community health center","type":"clinic","thana":"Banani","lat":23.790,"lon":90.406,"budget_bdt":30000000,"approved_year":2023,"completion_target":2025,"source_url":"https://imed.gov.bd/project/IMED-2023-DHK-0134","implementing_agency":"DGHS","status":"ongoing"},
  {"project_id":"IMED-2021-DHK-0445","project_name":"Rampura canal-side drain reconstruction","type":"drain","thana":"Rampura","lat":23.762,"lon":90.428,"budget_bdt":41000000,"approved_year":2021,"completion_target":2023,"source_url":"https://imed.gov.bd/project/IMED-2021-DHK-0445","implementing_agency":"DNCC","status":"completed"},
  {"project_id":"IMED-2022-DHK-0301","project_name":"Rampura-Banasree connecting road upgrade","type":"road","thana":"Rampura","lat":23.758,"lon":90.431,"budget_bdt":27000000,"approved_year":2022,"completion_target":2024,"source_url":"https://imed.gov.bd/project/IMED-2022-DHK-0301","implementing_agency":"DNCC","status":"ongoing"},
  {"project_id":"IMED-2020-DHK-0378","project_name":"Khilgaon flyover area drainage network","type":"drain","thana":"Khilgaon","lat":23.748,"lon":90.432,"budget_bdt":52000000,"approved_year":2020,"completion_target":2022,"source_url":"https://imed.gov.bd/project/IMED-2020-DHK-0378","implementing_agency":"DSCC","status":"completed"},
  {"project_id":"IMED-2022-DHK-0467","project_name":"Khilgaon ward 48 road repair","type":"road","thana":"Khilgaon","lat":23.745,"lon":90.429,"budget_bdt":16000000,"approved_year":2022,"completion_target":2023,"source_url":"https://imed.gov.bd/project/IMED-2022-DHK-0467","implementing_agency":"DSCC","status":"completed"},
  {"project_id":"IMED-2023-DHK-0067","project_name":"Khilgaon satellite school construction","type":"school","thana":"Khilgaon","lat":23.750,"lon":90.435,"budget_bdt":21000000,"approved_year":2023,"completion_target":2025,"source_url":"https://imed.gov.bd/project/IMED-2023-DHK-0067","implementing_agency":"DPE","status":"ongoing"},
  {"project_id":"IMED-2021-DHK-0502","project_name":"Kafrul ward drainage system overhaul","type":"drain","thana":"Kafrul","lat":23.785,"lon":90.388,"budget_bdt":33000000,"approved_year":2021,"completion_target":2023,"source_url":"https://imed.gov.bd/project/IMED-2021-DHK-0502","implementing_agency":"DNCC","status":"completed"},
  {"project_id":"IMED-2022-DHK-0534","project_name":"Kafrul Begum Rokeya Sarani road widening","type":"road","thana":"Kafrul","lat":23.782,"lon":90.385,"budget_bdt":56000000,"approved_year":2022,"completion_target":2024,"source_url":"https://imed.gov.bd/project/IMED-2022-DHK-0534","implementing_agency":"DNCC","status":"ongoing"},
  {"project_id":"IMED-2020-DHK-0612","project_name":"Cantonment area storm drain construction","type":"drain","thana":"Cantonment","lat":23.820,"lon":90.401,"budget_bdt":44000000,"approved_year":2020,"completion_target":2022,"source_url":"https://imed.gov.bd/project/IMED-2020-DHK-0612","implementing_agency":"DNCC","status":"completed"},
  {"project_id":"IMED-2023-DHK-0145","project_name":"Cantonment ward school expansion","type":"school","thana":"Cantonment","lat":23.818,"lon":90.398,"budget_bdt":26000000,"approved_year":2023,"completion_target":2025,"source_url":"https://imed.gov.bd/project/IMED-2023-DHK-0145","implementing_agency":"DPE","status":"ongoing"},
  {"project_id":"IMED-2021-DHK-0567","project_name":"Shahbagh to Farmgate road reconstruction","type":"road","thana":"Shahbagh","lat":23.739,"lon":90.396,"budget_bdt":67000000,"approved_year":2021,"completion_target":2023,"source_url":"https://imed.gov.bd/project/IMED-2021-DHK-0567","implementing_agency":"DSCC","status":"completed"},
  {"project_id":"IMED-2022-DHK-0589","project_name":"Shahbagh area drain modernization","type":"drain","thana":"Shahbagh","lat":23.737,"lon":90.394,"budget_bdt":31000000,"approved_year":2022,"completion_target":2024,"source_url":"https://imed.gov.bd/project/IMED-2022-DHK-0589","implementing_agency":"DSCC","status":"ongoing"},
  {"project_id":"IMED-2020-DHK-0678","project_name":"Sutrapur heritage area drain repair","type":"drain","thana":"Sutrapur","lat":23.712,"lon":90.410,"budget_bdt":23000000,"approved_year":2020,"completion_target":2021,"source_url":"https://imed.gov.bd/project/IMED-2020-DHK-0678","implementing_agency":"DSCC","status":"completed"},
  {"project_id":"IMED-2022-DHK-0701","project_name":"Sutrapur ward road and footpath renovation","type":"road","thana":"Sutrapur","lat":23.714,"lon":90.413,"budget_bdt":19000000,"approved_year":2022,"completion_target":2023,"source_url":"https://imed.gov.bd/project/IMED-2022-DHK-0701","implementing_agency":"DSCC","status":"completed"},
  {"project_id":"IMED-2021-DHK-0634","project_name":"Demra embankment road upgrade","type":"road","thana":"Demra","lat":23.718,"lon":90.478,"budget_bdt":38000000,"approved_year":2021,"completion_target":2023,"source_url":"https://imed.gov.bd/project/IMED-2021-DHK-0634","implementing_agency":"DSCC","status":"completed"},
  {"project_id":"IMED-2022-DHK-0656","project_name":"Demra ward drain and culvert network","type":"drain","thana":"Demra","lat":23.715,"lon":90.475,"budget_bdt":27000000,"approved_year":2022,"completion_target":2024,"source_url":"https://imed.gov.bd/project/IMED-2022-DHK-0656","implementing_agency":"DSCC","status":"ongoing"},
  {"project_id":"IMED-2023-DHK-0178","project_name":"Demra community clinic construction","type":"clinic","thana":"Demra","lat":23.720,"lon":90.480,"budget_bdt":11000000,"approved_year":2023,"completion_target":2024,"source_url":"https://imed.gov.bd/project/IMED-2023-DHK-0178","implementing_agency":"DGHS","status":"ongoing"},
  {"project_id":"IMED-2020-DHK-0734","project_name":"Sabujbagh ward drainage rehabilitation","type":"drain","thana":"Sabujbagh","lat":23.745,"lon":90.438,"budget_bdt":34000000,"approved_year":2020,"completion_target":2022,"source_url":"https://imed.gov.bd/project/IMED-2020-DHK-0734","implementing_agency":"DSCC","status":"completed"},
  {"project_id":"IMED-2022-DHK-0756","project_name":"Sabujbagh to Mugdapara road repair","type":"road","thana":"Sabujbagh","lat":23.747,"lon":90.441,"budget_bdt":21000000,"approved_year":2022,"completion_target":2023,"source_url":"https://imed.gov.bd/project/IMED-2022-DHK-0756","implementing_agency":"DSCC","status":"completed"},
  {"project_id":"IMED-2021-DHK-0712","project_name":"Shyampur industrial drain extension","type":"drain","thana":"Shyampur","lat":23.697,"lon":90.439,"budget_bdt":46000000,"approved_year":2021,"completion_target":2023,"source_url":"https://imed.gov.bd/project/IMED-2021-DHK-0712","implementing_agency":"DSCC","status":"completed"},
  {"project_id":"IMED-2023-DHK-0201","project_name":"Shyampur ward school building","type":"school","thana":"Shyampur","lat":23.700,"lon":90.442,"budget_bdt":20000000,"approved_year":2023,"completion_target":2025,"source_url":"https://imed.gov.bd/project/IMED-2023-DHK-0201","implementing_agency":"DPE","status":"ongoing"},
  {"project_id":"IMED-2020-DHK-0801","project_name":"Kamrangirchar flood protection embankment","type":"drain","thana":"Kamrangirchar","lat":23.723,"lon":90.381,"budget_bdt":89000000,"approved_year":2020,"completion_target":2023,"source_url":"https://imed.gov.bd/project/IMED-2020-DHK-0801","implementing_agency":"BWDB","status":"completed"},
  {"project_id":"IMED-2022-DHK-0823","project_name":"Kamrangirchar ward road paving","type":"road","thana":"Kamrangirchar","lat":23.725,"lon":90.383,"budget_bdt":15000000,"approved_year":2022,"completion_target":2023,"source_url":"https://imed.gov.bd/project/IMED-2022-DHK-0823","implementing_agency":"DSCC","status":"completed"},
  {"project_id":"IMED-2023-DHK-0223","project_name":"Kamrangirchar community health clinic","type":"clinic","thana":"Kamrangirchar","lat":23.720,"lon":90.378,"budget_bdt":9000000,"approved_year":2023,"completion_target":2024,"source_url":"https://imed.gov.bd/project/IMED-2023-DHK-0223","implementing_agency":"DGHS","status":"ongoing"},
  {"project_id":"IMED-2021-DHK-0789","project_name":"Wari old town drain restoration","type":"drain","thana":"Wari","lat":23.715,"lon":90.401,"budget_bdt":26000000,"approved_year":2021,"completion_target":2023,"source_url":"https://imed.gov.bd/project/IMED-2021-DHK-0789","implementing_agency":"DSCC","status":"completed"},
  {"project_id":"IMED-2022-DHK-0812","project_name":"Wari ward internal road upgrade","type":"road","thana":"Wari","lat":23.718,"lon":90.404,"budget_bdt":18000000,"approved_year":2022,"completion_target":2023,"source_url":"https://imed.gov.bd/project/IMED-2022-DHK-0812","implementing_agency":"DSCC","status":"completed"},
  {"project_id":"IMED-2020-DHK-0856","project_name":"Pallabi-Mirpur flood drain widening","type":"drain","thana":"Pallabi","lat":23.828,"lon":90.365,"budget_bdt":51000000,"approved_year":2020,"completion_target":2022,"source_url":"https://imed.gov.bd/project/IMED-2020-DHK-0856","implementing_agency":"DNCC","status":"completed"},
  {"project_id":"IMED-2022-DHK-0878","project_name":"Pallabi ward road resurfacing","type":"road","thana":"Pallabi","lat":23.830,"lon":90.362,"budget_bdt":24000000,"approved_year":2022,"completion_target":2023,"source_url":"https://imed.gov.bd/project/IMED-2022-DHK-0878","implementing_agency":"DNCC","status":"completed"},
  {"project_id":"IMED-2023-DHK-0245","project_name":"Pallabi satellite clinic construction","type":"clinic","thana":"Pallabi","lat":23.826,"lon":90.368,"budget_bdt":13000000,"approved_year":2023,"completion_target":2025,"source_url":"https://imed.gov.bd/project/IMED-2023-DHK-0245","implementing_agency":"DGHS","status":"ongoing"},
  {"project_id":"IMED-2021-DHK-0867","project_name":"Turag river bank protection and drain","type":"drain","thana":"Turag","lat":23.878,"lon":90.378,"budget_bdt":73000000,"approved_year":2021,"completion_target":2024,"source_url":"https://imed.gov.bd/project/IMED-2021-DHK-0867","implementing_agency":"BWDB","status":"ongoing"},
  {"project_id":"IMED-2022-DHK-0901","project_name":"Turag industrial zone road repair","type":"road","thana":"Turag","lat":23.880,"lon":90.375,"budget_bdt":31000000,"approved_year":2022,"completion_target":2024,"source_url":"https://imed.gov.bd/project/IMED-2022-DHK-0901","implementing_agency":"DNCC","status":"ongoing"}
]
